[{"address":"20+Cardinal+Hayes+Place,+New+York,+NY","location":{"lat":40.7133468,"lng":-74.0025814},"windowText":"20 Cardinal Hayes Place, New York, NY<br>(Church of Saint Andrew)<h3 id=\"firstHeading\" class=\"firstHeading\">Meeting: TOWER</h3><b>Meetings on Wednesdays:</b><br>17:30 - 18:30: Open Discussion<br><h3 id=\"firstHeading\" class=\"firstHeading\">Meeting: WOMEN'S DOWNTOWN AA STEP MEETING</h3><b>Meetings on Wednesdays:</b><br>13:15 - 14:15: Step meeting<br>"},{"address":"29+Mott+Street,+New+York,+NY","location":{"lat":40.7148115,"lng":-73.99911709999999},"windowText":"Please check another day"},{"address":"49+Fulton+Street,+New+York,+NY","location":{"lat":40.7081354,"lng":-74.00394519999999},"windowText":"Please check another day"},{"address":"44+John+Street,+New+York,+NY","location":{"lat":40.7091344,"lng":-74.0081019},"windowText":"Please check another day"},{"address":"22+Barclay+Street,+New+York,+NY","location":{"lat":40.7123651,"lng":-74.00956409999999},"windowText":"Please check another day"},{"address":"22+Barclay+Street+(Basement),+New+York,+NY","location":{"lat":40.7123651,"lng":-74.00956409999999},"windowText":"Please check another day"},{"address":"283+West+Broadway,+New+York,+NY","location":{"lat":40.7208017,"lng":-74.0048389},"windowText":"283 West Broadway, New York, NY<br>(Hazelden Tribeca)<h3 id=\"firstHeading\" class=\"firstHeading\">Meeting: SANE AND SOBER</h3><b>Meetings on Wednesdays:</b><br>19:00 - 20:00: Closed Discussion<br><h3 id=\"firstHeading\" class=\"firstHeading\">Meeting: PEOPLE'S DIVERSITY</h3><b>Meetings on Wednesdays:</b><br>20:30 - 21:30: Closed Discussion<br>"},{"address":"125+Barclay+Street,+New+York,+NY","location":{"lat":40.7145883,"lng":-74.01295809999999},"windowText":"Please check another day"},{"address":"22+Barclay+Street-+basement+chapel,+New+York,+NY","windowText":"Please check another day"},{"address":"273+Bowery,+New+York,+NY","location":{"lat":40.7237496,"lng":-73.992395},"windowText":"273 Bowery, New York, NY<br>(University Settlement House)<h3 id=\"firstHeading\" class=\"firstHeading\">Meeting: EXPERIENCE STRENGTH AND HOPE</h3><b>Meetings on Wednesdays:</b><br>19:00 - 20:00: Closed Discussion<br>"},{"address":"232+West+11th+Street,+New+York,+NY","location":{"lat":40.7360929,"lng":-74.0027593},"windowText":"232 West 11th Street, New York, NY<br>(Manhattan Church of The Seventh-day Adventist)<h3 id=\"firstHeading\" class=\"firstHeading\">Meeting: WEDNESDAY FOCUS</h3><b>Meetings on Wednesdays:</b><br>18:15 - 19:15: Closed Discussion<br>"},{"address":"220+West+Houston+Street,+New+York,+NY","location":{"lat":40.7287153,"lng":-74.004578},"windowText":"Please check another day"},{"address":"253+Center+Street,+New+York,+NY","location":{"lat":40.7206388,"lng":-73.9980605},"windowText":"Please check another day"},{"address":"487+Hudson+Street,+New+York,+NY","windowText":"Please check another day"},{"address":"292+Henry+Street,+New+York,+NY","location":{"lat":40.71371430000001,"lng":-73.983033},"windowText":"Please check another day"},{"address":"141+Henry+Street,+New+York,+NY","location":{"lat":40.7134775,"lng":-73.9906663},"windowText":"Please check another day"},{"address":"83+Christopher+Street+(Red+Door,+New+York,+NY","windowText":"Please check another day"},{"address":"50+Perry+Street,+New+York,+NY","location":{"lat":40.7355145,"lng":-74.0031001},"windowText":"50 Perry Street, New York, NY<br>()<h3 id=\"firstHeading\" class=\"firstHeading\">Meeting: PERRY STREET WORKSHOP</h3><b>Meetings on Wednesdays:</b><br>7:30 - 8:30: Closed Discussion<br>"},{"address":"224+Waverly+Place,+New+York,+NY","location":{"lat":40.7360517,"lng":-74.0020724},"windowText":"Please check another day"},{"address":"154+Sullivan+Street,+New+York,+NY","location":{"lat":40.7272453,"lng":-74.001408},"windowText":"Please check another day"},{"address":"273+Bowery+Street,+New+York,+NY","location":{"lat":40.7237496,"lng":-73.992395},"windowText":"Please check another day"},{"address":"371+6th+Avenue,+New+York,+NY","location":{"lat":40.732613,"lng":-74.00070509999999},"windowText":"Please check another day"},{"address":"155+Sullivan+Street,+New+York,+NY","location":{"lat":40.727211,"lng":-74.0012352},"windowText":"Please check another day"},{"address":"7+East+10th+Strert,+New+York,+NY","location":{"lat":40.7332774,"lng":-73.99463109999999},"windowText":"Please check another day"},{"address":"81+Christopher+Street,+New+York,+NY","location":{"lat":40.7336975,"lng":-74.0035917},"windowText":"Please check another day"},{"address":"83+Christopher+Street,+New+York,+NY","location":{"lat":40.7336761,"lng":-74.0037703},"windowText":"Please check another day"},{"address":"7+East+10th+Street,+New+York,+NY","location":{"lat":40.7332774,"lng":-73.99463109999999},"windowText":"7 East 10th Street, New York, NY<br>(N.Y.U Bronfman Center)<h3 id=\"firstHeading\" class=\"firstHeading\">Meeting: 12 CONCEPTS WORKSHOP</h3><b>Meetings on Wednesdays:</b><br>20:15 - 21:15: Closed Discussion<br>"},{"address":"155+East+22nd+Street,+New+York,+NY","location":{"lat":40.7385571,"lng":-73.9840372},"windowText":"155 East 22nd Street, New York, NY<br>(Gustavus Adolphus Lutheran Church)<h3 id=\"firstHeading\" class=\"firstHeading\">Meeting: ATLANTIC BY THE BOOK</h3><b>Meetings on Wednesdays:</b><br>19:00 - 20:00: Big Book meeting<br>"},{"address":"61+Fourth+Avenue,+New+York,+NY","location":{"lat":40.7307918,"lng":-73.9903808},"windowText":"Please check another day"},{"address":"208+West+13th+Street,+New+York,+NY","location":{"lat":40.7380161,"lng":-74.0011104},"windowText":"Please check another day"},{"address":"123+East+15th+Street,+New+York,+NY","location":{"lat":40.7346749,"lng":-73.9880046},"windowText":"Please check another day"},{"address":"61+Gramercy+Park+North,+New+York,+NY","location":{"lat":40.7389292,"lng":-73.98679840000001},"windowText":"61 Gramercy Park North, New York, NY<br>(Calvary Church Parish House)<h3 id=\"firstHeading\" class=\"firstHeading\">Meeting: AT BILL'S PLACE</h3><b>Meetings on Wednesdays:</b><br>18:30 - 19:30: Closed Discussion<br>"},{"address":"127+East+22nd+Street,+New+York,+NY","windowText":"Please check another day"},{"address":"602+East+9th+Street,+New+York,+NY","location":{"lat":40.7260263,"lng":-73.9801554},"windowText":"Please check another day"},{"address":"125+West+14th+Street,+New+York,+NY","location":{"lat":40.7380198,"lng":-73.99775679999999},"windowText":"Please check another day"},{"address":"346+West+20th+Street,+New+York,+NY","location":{"lat":40.7440891,"lng":-74.00198879999999},"windowText":"Please check another day"},{"address":"414+East+14th+Street,+New+York,+NY","windowText":"414 East 14th Street, New York, NY<br>(Our Lady of Immaculate Conception)<h3 id=\"firstHeading\" class=\"firstHeading\">Meeting: COMPLETE ABANDON</h3><b>Meetings on Wednesdays:</b><br>20:30 - 21:30: Step meeting<br>"},{"address":"119+Ninth+Avenue,+New+York,+NY","location":{"lat":40.7433244,"lng":-74.0041176},"windowText":"Please check another day"},{"address":"202+West+24+Street,+New+York,+NY","location":{"lat":40.7448224,"lng":-73.9958574},"windowText":"Please check another day"},{"address":"28+Gramercy+Park+South,+New+York,+NY","location":{"lat":40.7370361,"lng":-73.9853871},"windowText":"28 Gramercy Park South, New York, NY<br>(Brotherhood Synagogue)<h3 id=\"firstHeading\" class=\"firstHeading\">Meeting: EAST MEETS WEST IN SOBRIETY</h3><b>Meetings on Wednesdays:</b><br>19:00 - 20:00: Closed Discussion<br>"},{"address":"50+East+7th+Street,+New+York,+NY","location":{"lat":40.727553,"lng":-73.987661},"windowText":"Please check another day"},{"address":"802+Broadway,+New+York,+NY","location":{"lat":40.7319869,"lng":-73.9909306},"windowText":"Please check another day"},{"address":"28+Grammercy+Park+South,+New+York,+NY","location":{"lat":40.7370361,"lng":-73.9853871},"windowText":"Please check another day"},{"address":"209+East+16th+Street,+New+York,+NY","location":{"lat":40.7343774,"lng":-73.9849701},"windowText":"Please check another day"},{"address":"44+2nd+Avenue,+New+York,+NY","location":{"lat":40.72498849999999,"lng":-73.98997729999999},"windowText":"Please check another day"},{"address":"229+West+14th+Street,+New+York,+NY","location":{"lat":40.7393643,"lng":-74.00081270000001},"windowText":"Please check another day"},{"address":"208+W+13th+Street,+New+York,+NY","location":{"lat":40.7380161,"lng":-74.0011104},"windowText":"Please check another day"},{"address":"307+West+26th+St.,+New+York,+NY","location":{"lat":40.7476699,"lng":-73.9975237},"windowText":"Please check another day"},{"address":"343+West+25th+Street,+New+York,+NY","location":{"lat":40.7474637,"lng":-73.9990832},"windowText":"Please check another day"},{"address":"80+St.+Mark&apos;s+Place,+New+York,+NY","windowText":"Please check another day"},{"address":"51+East+25th+Street,+New+York,+NY","location":{"lat":40.7419984,"lng":-73.9861092},"windowText":"51 East 25th Street, New York, NY<br>(Intercare)<h3 id=\"firstHeading\" class=\"firstHeading\">Meeting: MADISON PARK BEGINNERS</h3><b>Meetings on Wednesdays:</b><br>10:00 - 11:00: Beginners meeting<br>"},{"address":"315+West+22nd+Street,+New+York,+NY","location":{"lat":40.745157,"lng":-73.99963},"windowText":"Please check another day"},{"address":"15+Rutherford+Place,+New+York,+NY","location":{"lat":40.7338148,"lng":-73.98534490000002},"windowText":"Please check another day"},{"address":"25+East+15th-+Conference+Room+H,+New+York,+NY","windowText":"25 East 15th- Conference Room H, New York, NY<br>(The Realization Center)<h3 id=\"firstHeading\" class=\"firstHeading\">Meeting: NINJAS IN RECOVERY</h3><b>Meetings on Wednesdays:</b><br>20:00 - 21:00: Step meeting<br>"},{"address":"175+9th+Avenue,+New+York,+NY","location":{"lat":40.7456308,"lng":-74.0037443},"windowText":"Please check another day"},{"address":"19+Union+Square+West,+New+York,+NY","location":{"lat":40.7361079,"lng":-73.991242},"windowText":"Please check another day"},{"address":"423+East+23rd+Street,+New+York,+NY","location":{"lat":40.7370457,"lng":-73.9768398},"windowText":"Please check another day"},{"address":"411+East+12th+Street,+New+York,+NY","location":{"lat":40.7298724,"lng":-73.9827759},"windowText":"Please check another day"},{"address":"239+East+21st+Street,+New+York,+NY","location":{"lat":40.73695680000001,"lng":-73.9822937},"windowText":"Please check another day"},{"address":"12+West+12th+Street,+New+York,+NY","location":{"lat":40.734504,"lng":-73.995177},"windowText":"Please check another day"},{"address":"12+West+11th+Street,+New+York,+NY","location":{"lat":40.7341126,"lng":-73.9957561},"windowText":"Please check another day"},{"address":"116+West+11th+Street,+New+York,+NY","location":{"lat":40.7355263,"lng":-73.9991134},"windowText":"Please check another day"},{"address":"80+5th+Avenue,+New+York,+NY","location":{"lat":40.73587260000001,"lng":-73.9939717},"windowText":"Please check another day"},{"address":"319+Eastr+24th+Street,+New+York,+NY","location":{"lat":40.738438,"lng":-73.980164},"windowText":"Please check another day"},{"address":"10+East+Union+Square,+New+York,+NY","location":{"lat":40.7348835,"lng":-73.9897585},"windowText":"Please check another day"},{"address":"206-208+East+11th+Street,+New+York,+NY","location":{"lat":40.7308882,"lng":-73.9881049},"windowText":"Please check another day"},{"address":"10+Union+Square+East,+New+York,+NY","location":{"lat":40.7348835,"lng":-73.9897585},"windowText":"Please check another day"},{"address":"155+West+22nd+Street,+New+York,+NY","location":{"lat":40.7431787,"lng":-73.9952776},"windowText":"Please check another day"},{"address":"20+Washington+Square+North,+New+York,+NY","location":{"lat":40.7319414,"lng":-73.9976956},"windowText":"Please check another day"},{"address":"344+East+14th+Street,+New+York,+NY","location":{"lat":40.7312884,"lng":-73.9832952},"windowText":"Please check another day"},{"address":"173+East+3rd+Street-+basement,+New+York,+NY","location":{"lat":40.7234082,"lng":-73.98430259999999},"windowText":"Please check another day"},{"address":"252+West+46th+Street,+New+York,+NY","location":{"lat":40.7593263,"lng":-73.98727389999999},"windowText":"Please check another day"},{"address":"303+West+42nd+Street,+New+York,+NY","location":{"lat":40.7576553,"lng":-73.9899274},"windowText":"303 West 42nd Street, New York, NY<br>()<h3 id=\"firstHeading\" class=\"firstHeading\">Meeting: A NEW FREEDOM</h3><b>Meetings on Wednesdays:</b><br>8:00 - 9:00: Open Discussion<br>"},{"address":"305+7th+Avenue,+New+York,+NY","location":{"lat":40.7466478,"lng":-73.99335599999999},"windowText":"305 7th Avenue, New York, NY<br>(S.A.G.E.)<h3 id=\"firstHeading\" class=\"firstHeading\">Meeting: ABINGDON SQUARE IN CHELSEA</h3><b>Meetings on Wednesdays:</b><br>20:00 - 21:00: Open Discussion<br>"},{"address":"1+West+53rd+Street,+New+York,+NY","location":{"lat":40.76083209999999,"lng":-73.9763834},"windowText":"Please check another day"},{"address":"133+West+46th+Street,+New+York,+NY","location":{"lat":40.7579801,"lng":-73.9836316},"windowText":"Please check another day"},{"address":"441+West+26th+Street,+New+York,+NY","location":{"lat":40.749552,"lng":-74.0022443},"windowText":"Please check another day"},{"address":"446+West+33rd+Street,+New+York,+NY","location":{"lat":40.7535549,"lng":-73.9987752},"windowText":"Please check another day"},{"address":"339+West+47th+Street,+New+York,+NY","location":{"lat":40.7613138,"lng":-73.9890389},"windowText":"339 West 47th Street, New York, NY<br>(The Actor's Temple)<h3 id=\"firstHeading\" class=\"firstHeading\">Meeting: BETWEEN SHOWS</h3><b>Meetings on Wednesdays:</b><br>17:00 - 18:00: Closed Discussion<br>"},{"address":"303+West+42nd+St+Rm+306,+New+York,+NY","location":{"lat":40.7576553,"lng":-73.9899274},"windowText":"Please check another day"},{"address":"139+West+31st+Street,+New+York,+NY","location":{"lat":40.7487872,"lng":-73.9907198},"windowText":"Please check another day"},{"address":"422+West+57th+Street,+New+York,+NY","location":{"lat":40.7681523,"lng":-73.986936},"windowText":"422 West 57th Street, New York, NY<br>(Trinity Presbyterian Church)<h3 id=\"firstHeading\" class=\"firstHeading\">Meeting: FIRESIDE    WEEKDAY MEETINGS ONLY</h3><b>Meetings on Wednesdays:</b><br>24:00 - 13:00: Beginners meeting<br><h3 id=\"firstHeading\" class=\"firstHeading\">Meeting: STEPS AND TRADITIONS ON WEDNESDAY</h3><b>Meetings on Wednesdays:</b><br>19:00 - 20:15: Step meeting<br>"},{"address":"211+West+30th+Street,+New+York,+NY","location":{"lat":40.7487585,"lng":-73.99314559999999},"windowText":"211 West 30th Street, New York, NY<br>(St. John's Hall)<h3 id=\"firstHeading\" class=\"firstHeading\">Meeting: COMMUTERS SPECIAL</h3><b>Meetings on Wednesdays:</b><br>18:00 - 19:00: Closed Discussion<br>"},{"address":"7+West+55th+Street,+New+York,+NY","location":{"lat":40.76208099999999,"lng":-73.9752496},"windowText":"Please check another day"},{"address":"729+7th+Avenue,+New+York,+NY","location":{"lat":40.76014259999999,"lng":-73.9835384},"windowText":"Please check another day"},{"address":"538+West+47th+Street,+New+York,+NY","location":{"lat":40.7633341,"lng":-73.9948934},"windowText":"Please check another day"},{"address":"1000+Tenth+Avenue,+New+York,+NY","location":{"lat":40.7697168,"lng":-73.9868805},"windowText":"Please check another day"},{"address":"307+West+26th+Street,+New+York,+NY","location":{"lat":40.7476699,"lng":-73.9975237},"windowText":"307 West 26th Street, New York, NY<br>(Upright Citizens Brigade Theatre)<h3 id=\"firstHeading\" class=\"firstHeading\">Meeting: LEARNING TO LIVE</h3><b>Meetings on Wednesdays:</b><br>24:00 - 13:00: Step meeting<br>"},{"address":"405+West+59th+Street,+New+York,+NY","location":{"lat":40.7698331,"lng":-73.9850824},"windowText":"405 West 59th Street, New York, NY<br>(St. Paul's Episcopal Parish House)<h3 id=\"firstHeading\" class=\"firstHeading\">Meeting: LUCKY ONES</h3><b>Meetings on Wednesdays:</b><br>13:00 - 14:00: Big Book meeting<br>"},{"address":"422+West+57th+St.,+New+York,+NY","location":{"lat":40.7681523,"lng":-73.986936},"windowText":"Please check another day"},{"address":"296+9th+Avenue,+New+York,+NY","windowText":"296 9th Avenue, New York, NY<br>(Holy Apostles Church Rectory)<h3 id=\"firstHeading\" class=\"firstHeading\">Meeting: NINTH AVENUE</h3><b>Meetings on Wednesdays:</b><br>18:15 - 19:15: Closed Discussion<br>"},{"address":"484+West+43rd+Street,+New+York,+NY","location":{"lat":40.7598808,"lng":-73.99439749999999},"windowText":"Please check another day"},{"address":"4+West+43rd+Street,+New+York,+NY","location":{"lat":40.7542709,"lng":-73.9812596},"windowText":"Please check another day"},{"address":"296+Ninth+Avenue,+New+York,+NY","windowText":"Please check another day"},{"address":"210+West+31st+Street,+New+York,+NY","location":{"lat":40.7490715,"lng":-73.9928103},"windowText":"Please check another day"},{"address":"134+West+29th+Street+-+2nd+floor+Studio+203,+New+York,+NY","location":{"lat":40.7471514,"lng":-73.9917766},"windowText":"Please check another day"},{"address":"423+West+46th+Street,+New+York,+NY","location":{"lat":40.7615675,"lng":-73.9915851},"windowText":"Please check another day"},{"address":"122+East+37th+Street,+New+York,+NY","location":{"lat":40.748323,"lng":-73.97884499999999},"windowText":"122 East 37th Street, New York, NY<br>()<h3 id=\"firstHeading\" class=\"firstHeading\">Meeting: GRUPO BRASIL</h3><b>Meetings on Wednesdays:</b><br>20:00 - 21:00: Step meeting<br>"},{"address":"30+East+35th+Street,+New+York,+NY","location":{"lat":40.7479205,"lng":-73.9817652},"windowText":"Please check another day"},{"address":"350+East+56th+Street,+New+York,+NY","location":{"lat":40.7576496,"lng":-73.964016},"windowText":"Please check another day"},{"address":"619+Lexington+Avenue,+New+York,+NY","location":{"lat":40.75856539999999,"lng":-73.9703834},"windowText":"Please check another day"},{"address":"28+East+35th+Street,+New+York,+NY","location":{"lat":40.7479666,"lng":-73.9818762},"windowText":"Please check another day"},{"address":"350+East+56th+Street+,+New+York,+NY","location":{"lat":40.7576496,"lng":-73.964016},"windowText":"Please check another day"},{"address":"283+Lexington+Avenue,+New+York,+NY","location":{"lat":40.7479436,"lng":-73.9782379},"windowText":"Please check another day"},{"address":"141+East+43rd+Street,+New+York,+NY","location":{"lat":40.7517635,"lng":-73.974693},"windowText":"Please check another day"},{"address":"122+E+37TH+St.,+New+York,+NY","location":{"lat":40.748323,"lng":-73.97884499999999},"windowText":"122 E 37TH St., New York, NY<br>(MUSTARD SEED)<h3 id=\"firstHeading\" class=\"firstHeading\">Meeting: LUNCHTIME EXPRESS AT THE MUSTARD SEED</h3><b>Meetings on Wednesdays:</b><br>24:30 - 13:15: undefined<br>"},{"address":"209+Madison+Avenue,+New+York,+NY","location":{"lat":40.7486231,"lng":-73.9820249},"windowText":"Please check another day"},{"address":"240+East+31st+Street,+New+York,+NY","location":{"lat":40.74308630000001,"lng":-73.9781856},"windowText":"Please check another day"},{"address":"114+East+35th+Street,+New+York,+NY","location":{"lat":40.7471876,"lng":-73.9801095},"windowText":"Please check another day"},{"address":"230+East+60th+Street+(Basement)+,+New+York,+NY","location":{"lat":40.7614473,"lng":-73.9650253},"windowText":"Please check another day"},{"address":"244+East+58th+Street,+New+York,+NY","location":{"lat":40.7600109,"lng":-73.96544},"windowText":"Please check another day"},{"address":"325+Park+Avenue,+New+York,+NY","location":{"lat":40.7572248,"lng":-73.9730479},"windowText":"Please check another day"},{"address":"236+EAST+31st+STREET+,+New+York,+NY","location":{"lat":40.7430458,"lng":-73.978217},"windowText":"Please check another day"},{"address":"308+East+55th+Street,+New+York,+NY","location":{"lat":40.7576231,"lng":-73.9657988},"windowText":"308 East 55th Street, New York, NY<br>(Conservative Synagogue)<h3 id=\"firstHeading\" class=\"firstHeading\">Meeting: TEMPLETON</h3><b>Meetings on Wednesdays:</b><br>18:15 - 19:15: Open Discussion<br>"},{"address":"109+East+50th+Street,+New+York,+NY","location":{"lat":40.7569979,"lng":-73.9734971},"windowText":"109 East 50th Street, New York, NY<br>()<h3 id=\"firstHeading\" class=\"firstHeading\">Meeting: WOMEN'S ELEVENTH STEP</h3><b>Meetings on Wednesdays:</b><br>17:45 - 19:15: Step meeting<br>"}]